[
{"Category": "Architectural Services", "Name": "De Arch", "Address": "No-18/B, Thukha Waddy St, ", "Phone": "(01) 562701"},
{"Category": "Architectural Services", "Name": "CLASSICAL ARCHITECT CO., LTD.", "Address": "Rm#402, Bldg. 351, Theinbyu Condo, Theinbyu Rd., Mingalar Taung Nyunt Tsp Yangon", "Phone": "(01)-385417 09-8024238"},
{"Category": "Architectural Services", "Name": "SPiNE Architects", "Address": "28B Sayar San Lane 1 Bahan Township, ", "Phone": "+951 541366", "Latitude": ["16.8161199277761"], "Longitude": ["96.1590724629211"]},
{"Category": "Categories", "Name": "APEX MYITTA CONSTRUCTION CO.LTD", "Address": "Diamond Condo (E), 2nd Floor, Narnat Taw Street, Kamayut,, ", "Phone": null, "Latitude": ["16.8222435617924"], "Longitude": ["96.1307761073112"]},
{"Category": "Architectural Services", "Name": "AzureDesignStudio", "Address": "No.6,Botahtaung Pagoda Road,Pazunetaung Tsp, ", "Phone": "+959798185907", "Latitude": ["16.7770705023918"], "Longitude": ["96.172513961792"]},
{"Category": "Categories", "Name": "ST & T", "Address": "Rm-A/5, Bldg-B/1-Insein Rd, Mayangone, ", "Phone": "(01) 652386"},
{"Category": "Civil Engineering", "Name": "Archetype Myanmar Ltd.", "Address": "Shwe Hintha Tower B, Room 306 No. 51. Pyay Road, 6 1/2 Miles, ", "Phone": "507344 ext.159"},
{"Category": "Architectural Services", "Name": "ST & T Architecture & Building Services", "Address": "Rm 501, Bldg 1, Yangon-Insein Rd, Aung Myae Thar Si St, ", "Phone": "(01)510428"},
{"Category": "Categories", "Name": "K'n A", "Address": "Bldg-4, Rm-501, 502, Myaing Hay Wun Housing, Mayangone, ", "Phone": "(01) 653575"},
{"Category": "Architectural Services", "Name": "2architects", "Address": "4, Rm# 301, Thiri Gon Housing, Waizayandar Rd. Thingankyun Tsp", "Phone": "(01) 577690"},
{"Category": "Architectural Services", "Name": "Melbourne Co.,Ltd (Ariston)", "Address": "A/1, Aung San Stadium East Wing, Upper Pansodan Road, Mingalar Taung Nyunt, Yangon, ", "Phone": "01 - 251033", "Latitude": ["16.7856813036012"], "Longitude": ["96.1619957884523"]},
{"Category": "Architectural Services", "Name": "The First Mahar Co, Ltd", "Address": "Building (6) , Room 105 , Pazundaung Park Housing , Pazundaung Township, ", "Phone": "(+ 95) 9 254 200 020", "Latitude": ["16.7811430295038"], "Longitude": ["96.1743915081024"]},
{"Category": "Architectural Services", "Name": "Banerjee And Associates", "Address": "74/30, P.Majumder Road, Haltu, ", "Phone": null},
{"Category": "Architectural Services", "Name": "AE Model", "Address": "Lot 203, 2nd Flr., Olympic Tower, Maha Bandoola Rd., Cor. Bo Aung Kyaw St., Kyaukdata Tsp", "Phone": "(01) 392869"},
{"Category": "Advertising", "Name": "One Family Group Construction & Decoration", "Address": "No 44(A) Ground Floor, Hlaw Kar Street, Lutlatyay Quarter, Alone Township, Yangon, Myanmar, ", "Phone": "09796556180", "Latitude": ["16.8893168174818"], "Longitude": ["96.1537170410156"]},
{"Category": "Categories", "Name": "Adorn Architects", "Address": "No.641, Maha BandoolaRd, Bet 21sr & 22nd St, Latha, ", "Phone": "(01)287797"},
{"Category": "Architectural Services", "Name": "Process Myanmar (Process Architect & Planner Co., Ltd.)", "Address": "Rm# 404, 4th Flr., MGW Tower, Bo Aung Kyaw St. Botahtaung Tsp", "Phone": "(01) 256711"},
{"Category": "Architectural Services", "Name": "C.A.D Construction & Decoration Group", "Address": "122 (B), Rm# S-2, 80th St., Cor. of 31st St., Chan Aye Thazan Tsp", "Phone": "(02) 60678"}
][
{"Category": "Architectural Services", "Name": "De Arch", "Address": "No-18/B, Thukha Waddy St, ", "Phone": "(01) 562701"}[
{"Category": "Architectural Services", "Name": "SPiNE Architects", "Address": "28B Sayar San Lane 1 Bahan Township, ", "Phone": "+951 541366", "Latitude": ["16.8161199277761"], "Longitude": ["96.1590724629211"]}[
{"Category": "Categories", "Name": "Yoma Nadi Company Limited.", "Address": "Myanma Goneyi Housing, Building No.A3-2, Room No. 804, Upper Pansodan Road, Mingalar Taung Nyunt, Yangon, Union of Myanmar., ", "Phone": "095127790", "Latitude": ["16.7852312158736"], "Longitude": ["96.1625719061703"]}[
{"Category": "Architectural Services", "Name": "Dawn (Ah Yone Oo) Construction Co.,Ltd.", "Address": "69(Rm 608/B/609/A), 6th Flr, Shwe Gon Daing Rd., Corner of Kaba Aye Pagoda Rd., Yuzana Tower, Shwe Gon Daing (West) Ward, BHN", "Phone": "558294"}