[
{"Category": "Architectural Services", "Name": "De Arch", "Address": "No-18/B, Thukha Waddy St, ", "Phone": "(01) 562701"},
{"Category": "Architectural Services", "Name": "Banerjee And Associates", "Address": "74/30, P.Majumder Road, Haltu, ", "Phone": null},
{"Category": "Categories", "Name": "ST & T", "Address": "Rm-A/5, Bldg-B/1-Insein Rd, Mayangone, ", "Phone": "(01) 652386"},
{"Category": "Architectural Services", "Name": "Dawn (Ah Yone Oo) Construction Co.,Ltd.", "Address": "69(Rm 608/B/609/A), 6th Flr, Shwe Gon Daing Rd., Corner of Kaba Aye Pagoda Rd., Yuzana Tower, Shwe Gon Daing (West) Ward, BHN", "Phone": "558294"},
{"Category": "Categories", "Name": "Adorn Architects", "Address": "No.641, Maha BandoolaRd, Bet 21sr & 22nd St, Latha, ", "Phone": "(01)287797"},
{"Category": "Advertising", "Name": "One Family Group Construction & Decoration", "Address": "No 44(A) Ground Floor, Hlaw Kar Street, Lutlatyay Quarter, Alone Township, Yangon, Myanmar, ", "Phone": "09796556180", "Latitude": ["16.8893168174818"], "Longitude": ["96.1537170410156"]},
{"Category": "Categories", "Name": "APEX MYITTA CONSTRUCTION CO.LTD", "Address": "Diamond Condo (E), 2nd Floor, Narnat Taw Street, Kamayut,, ", "Phone": null, "Latitude": ["16.8222435617924"], "Longitude": ["96.1307761073112"]},
{"Category": "Architectural Services", "Name": "AzureDesignStudio", "Address": "No.6,Botahtaung Pagoda Road,Pazunetaung Tsp, ", "Phone": "+959798185907", "Latitude": ["16.7770705023918"], "Longitude": ["96.172513961792"]},
{"Category": "Architectural Services", "Name": "2architects", "Address": "4, Rm# 301, Thiri Gon Housing, Waizayandar Rd. Thingankyun Tsp", "Phone": "(01) 577690"},
{"Category": "Architectural Services", "Name": "ST & T Architecture & Building Services", "Address": "Rm 501, Bldg 1, Yangon-Insein Rd, Aung Myae Thar Si St, ", "Phone": "(01)510428"},
{"Category": "Architectural Services", "Name": "CLASSICAL ARCHITECT CO., LTD.", "Address": "Rm#402, Bldg. 351, Theinbyu Condo, Theinbyu Rd., Mingalar Taung Nyunt Tsp Yangon", "Phone": "(01)-385417 09-8024238"},
{"Category": "Architectural Services", "Name": "AE Model", "Address": "Lot 203, 2nd Flr., Olympic Tower, Maha Bandoola Rd., Cor. Bo Aung Kyaw St., Kyaukdata Tsp", "Phone": "(01) 392869"},
{"Category": "Categories", "Name": "K'n A", "Address": "Bldg-4, Rm-501, 502, Myaing Hay Wun Housing, Mayangone, ", "Phone": "(01) 653575"},
{"Category": "Architectural Services", "Name": "C.A.D Construction & Decoration Group", "Address": "122 (B), Rm# S-2, 80th St., Cor. of 31st St., Chan Aye Thazan Tsp", "Phone": "(02) 60678"},
{"Category": "Architectural Services", "Name": "Melbourne Co.,Ltd (Ariston)", "Address": "A/1, Aung San Stadium East Wing, Upper Pansodan Road, Mingalar Taung Nyunt, Yangon, ", "Phone": "01 - 251033", "Latitude": ["16.7856813036012"], "Longitude": ["96.1619957884523"]},
{"Category": "Categories", "Name": "Yoma Nadi Company Limited.", "Address": "Myanma Goneyi Housing, Building No.A3-2, Room No. 804, Upper Pansodan Road, Mingalar Taung Nyunt, Yangon, Union of Myanmar., ", "Phone": "095127790", "Latitude": ["16.7852312158736"], "Longitude": ["96.1625719061703"]},
{"Category": "Architectural Services", "Name": "The First Mahar Co, Ltd", "Address": "Building (6) , Room 105 , Pazundaung Park Housing , Pazundaung Township, ", "Phone": "(+ 95) 9 254 200 020", "Latitude": ["16.7811430295038"], "Longitude": ["96.1743915081024"]},
{"Category": "Categories", "Name": "Kyaw Htun & Associates Co.,Ltd", "Address": "4/C, #002, Thit Sar Garden Estate, South Okkalapa, ", "Phone": "(01) 095200891"},
{"Category": "Architectural Services", "Name": "C.A.D Construction & Decoration", "Address": "No.122/B, Rm-S/2, 80th St, Cor of 31st St, ", "Phone": "(02) 64571"},
{"Category": "Architectural Services", "Name": "Mandalay Service Group", "Address": "129, 33rd St., Bet. 73rd & 74th St.", "Phone": "(02) 32643"},
{"Category": "Architectural Services", "Name": "Pacific High Technology Int'l Co., Ltd.", "Address": "35 (B), Oo Yin St., Cor. of New University Ave. Rd., Bahan Tsp", "Phone": "(01) 541155"},
{"Category": "Architectural Services", "Name": "New Force Co.,Ltd", "Address": "No.29/B-3, Myay Nu St, ", "Phone": "(01) 524263"},
{"Category": "Advertising", "Name": "Dream Image (AA Photo)", "Address": "170, (G/F), 45th St., Upper Blk., Botahtaung Tsp", "Phone": "(01) 203331"},
{"Category": "Architectural Services", "Name": "Spa Design", "Address": "Pan Hlaing Golf Estate Ave., Peninsula of Hlaing River & Pun Hlaing River, Hlaing Thayar Tsp", "Phone": "(01) 684202"},
{"Category": "Architectural Services", "Name": "HABITAT ARCHITECTS", "Address": "315 Bldg. B Kyaikkasan Housing, East Race Course Rd. Tamwe Tsp Yangon", "Phone": "(01)-703329 95006667"},
{"Category": "Architectural Services", "Name": "AEP CO. LTD. (ARCHITECTS ENGINEERS PLANNERS) (EXT. 123)", "Address": "647 Inya View Bldg., Pyay Rd. Kamayut Tsp Yangon", "Phone": "(01)-505099 537953 502968 537979"},
{"Category": "Architectural Services", "Name": "M@STERPIECE ENGINEERING & EDUCATION GROUP", "Address": "144 Room 24 (3rd Floor.), 26th Street Pabedan Tsp Yangon", "Phone": "(01)-250102 95140118"},
{"Category": "Architectural Services", "Name": "K 'n A Architects Group (Ext. 209)", "Address": "Rm# 501/502, Bldg. 4, Myaing Hay Wun Housing Mayangone Tsp", "Phone": "(01) 653575"},
{"Category": "Architectural Services", "Name": "Nang Kyway Shi Mon", "Address": "25L/13 Thuzithar Road, Hlaing Tsp., Yangon., ", "Phone": null},
{"Category": "Architectural Services", "Name": "LEO ARCHITECT & DESIGN", "Address": "56 (2nd Floor.), Parami Rd. Hlaing Tsp Yangon", "Phone": "(01)-652136 95014083"},
{"Category": "Architectural Services", "Name": "MAUNG SHWE & ASSOCIATES", "Address": "Room 203, Kungyan 1st Street Kamayut Tsp Yangon", "Phone": "(01)-513392 500563"},
{"Category": "Architectural Services", "Name": "Process Myanmar (Process Architect & Planner Co., Ltd.)", "Address": "Rm# 404, 4th Flr., MGW Tower, Bo Aung Kyaw St. Botahtaung Tsp", "Phone": "(01) 256711"},
{"Category": "Architectural Services", "Name": "Amenity Design Group", "Address": "No-72, Rm-103, Upper Flr, U Wizara Rd, Cor of Chin Dwing St, ", "Phone": "(01) 504076"},
{"Category": "Architectural Services", "Name": "AEP Architects, Engineers & Planners", "Address": "No.647, Pyay Rd, Inya View Building, ", "Phone": "(01)098024143"},
{"Category": "Architectural Services", "Name": "Architects 47", "Address": "(Rm 20), Bldg 1, 1st Flr, Pyay Rd., Myo Pya Housing (North), Ward (4), MYGN", "Phone": "655800"},
{"Category": "Architectural Services", "Name": "Design 2000", "Address": "No.76/3, Bo Aung Kyaw St, ", "Phone": "(01) 380329"},
{"Category": "Architectural Services", "Name": "AKHA (EXT. 314)", "Address": "20 Room 3, Zawhtika Street Kamayut Tsp Yangon", "Phone": "(01)-501663"},
{"Category": "Engineering", "Name": "AAA Construction", "Address": "117, 26(B)th St., Cor. of 76th St.", "Phone": "(02) 61654"},
{"Category": "Architectural Services", "Name": "Spine (Ext. 303)", "Address": "D-303, 3rd Flr., Shwe Phyu Plaza, Bet. 32nd & 33rd St., Bet. 77th & 78th St.", "Phone": "(02) 72802"},
{"Category": "Architectural Services", "Name": "Apex Constructional Design & Supervision", "Address": "C-14, 70th St, Bet 29th & 30th St, ", "Phone": "(02)34451"},
{"Category": "Architectural Services", "Name": "ARCHI - TECH ARCHITECTS & ENGINEERS", "Address": "Room 001 Bldg. 3 Kyi Taw Housing, Mingalar Taung Nyunt Tsp Yangon", "Phone": "(01)-291426 299339 292299"},
{"Category": "Architectural Services", "Name": "TEC Team", "Address": "No.59/61-D, Kaba Aye Pagoda Rd, Sein Yeik Mon, ", "Phone": "(01)663078"},
{"Category": "Architectural Services", "Name": "Shwe La Min", "Address": "No.135, 2nd Flr(Left), 34th St (Middle), ", "Phone": "(01) 701074"},
{"Category": "Architectural Services", "Name": "TURN-KEY CONSTRUCTION CO. LTD.", "Address": "Room 15 Bldg. 387, Sethmu 1st Rd. Bahan Tsp Yangon", "Phone": "(01)-544498 99924152 95003556 99924032"},
{"Category": "Categories", "Name": "A1 Construction & Trading Co Ltd", "Address": "41, Nawaday St, Alfa Hotel Bldg, Dagon, ", "Phone": "(01)241905"},
{"Category": "Architectural Services", "Name": "AKHA (Ext. 565)", "Address": "35, East Blk. (A), Bogyoke Market Pabedan Tsp", "Phone": "(01) 256411"},
{"Category": "Architectural Services", "Name": "Architect Group II", "Address": "34/H, Kaba Aye Pagoda Rd., Corner of San Yae Twin St., Sasana Yeikthar Ward, BHN", "Phone": "556338"},
{"Category": "Categories", "Name": "Archi-tech", "Address": "Bldg.3, Rm 001, Kyi Taw Housing, Mingalar Taungnyunt, ", "Phone": "(01)291426"},
{"Category": "Architectural Services", "Name": "Architecture and Engineering Construction Co-op Ltd. (AECC)", "Address": "(Rm 33/34), Bldg 1, 2nd Flr, Yangon-Insein Rd., Near Hledan Junction, Ward (3), KMYT", "Phone": "537365"},
{"Category": "Categories", "Name": "Chaw Kalayar", "Address": "No.64/G-1, Kyaik Waing Pagoda Rd, Mayangone, ", "Phone": "(01) 662792"},
{"Category": "Architectural Services", "Name": "Aung Chan Thar (Ext. 222)", "Address": "10, Shwedagon North Entrance Bahan Tsp", "Phone": "(01) 383551"},
{"Category": "Categories", "Name": "Aye Aye,Daw", "Address": "No.34/H, Kabaaye Pagoda Rd, Sin Yae Twin Lane, Bahan, ", "Phone": "(01) 728476"},
{"Category": "Architectural Services", "Name": "Aung Myint,U", "Address": "Rm-103, U Wisara Rd, Pin Lon Htate Htar Housing, ", "Phone": "(01) 513748"},
{"Category": "Oil &amp; Gas Companies", "Name": "Aung Zabu Thiha Co.,Ltd.", "Address": "23/C, Kan Yeik Thar St., Ward (10), MYGN", "Phone": "664851"},
{"Category": "Architectural Services", "Name": "Ayar Lwin,Daw", "Address": "Myanmar Teleport Yadanarbon, ", "Phone": "(01) 098630072"},
{"Category": "Architectural Services", "Name": "Architect Maung Thaw & Associates", "Address": "77/129, Lower Mingalardon Rd., Danyingone, Insein Tsp", "Phone": "(01) 703118"},
{"Category": "Architectural Services", "Name": "Cho Cho Tin,Daw", "Address": "No.173, Kyun Shwe Myaing St, Thuwunna, ", "Phone": "(01) 095175701"},
{"Category": "Architectural Services", "Name": "AZA Construction", "Address": "Nagyi-1/97, 64th St., Bet. Tharaphi & Swetaw St., Myothit.", "Phone": "(02) 09-2007272"},
{"Category": "Architectural Services", "Name": "ARCHITRCTURAL & ENGINEERING FIRM (KJK)", "Address": "Room 9 Bldg. 182/202, 34th Street Kyauktada Tsp Yangon", "Phone": "(01)-284155 95001634"},
{"Category": "Architectural Services", "Name": "Bala & Paxtners", "Address": "53/C, Yangon-Insein Rd., Ward (1), KMYT", "Phone": "535676"},
{"Category": "Architectural Services", "Name": "''Brave Rose\" Design & Construction Co., Ltd.", "Address": "62 (A), Shwe Hninsi St., 8 \u00bd Mile, Mayangone Tsp", "Phone": "(01) 09-73065460"},
{"Category": "Architectural Services", "Name": "Central Engineering Construction Co Ltd", "Address": "96, Yadanar Myaing St, Off Yangon-Insein Rd, (West Side), ", "Phone": "(01)527097"},
{"Category": "Architectural Services", "Name": "Choice Home Decoration & Construction Group", "Address": "No.1033, Pyay Rd, 10 Mile, Than Lwin Bldg, ", "Phone": "(01) 647640"},
{"Category": "Architectural Services", "Name": "Athena", "Address": "77, 34th St, Bet 76th & 77th St, ", "Phone": "(02)89475"},
{"Category": "Architectural Services", "Name": "Aung Myat Soe,U", "Address": "473/C, Pyay Rd, ", "Phone": "(01) 524058"},
{"Category": "Architectural Services", "Name": "FMP Architects & Engineering Group", "Address": "59, Sabei Chan St., Hlaing Tsp", "Phone": "(01) 538697"},
{"Category": "Architectural Services", "Name": "C.S.G GENERAL CONTRACTS", "Address": "Room 5 Bldg. 3, Bo Yar Nyunt Street Dawbon Tsp Yangon", "Phone": "(01)-256466 250019 251559"},
{"Category": "Categories", "Name": "Classical Architect Co Ltd", "Address": "351, Rm-402, Thein Phyu Rd, Theinphyu Condominium, Mingalar Taungnyunt, ", "Phone": "(01)385417"},
{"Category": "Architectural Services", "Name": "Empision Services Co., Ltd.", "Address": "B-703, 7th Flr., Dagon Center, Myaynigone, Sanchaung Tsp", "Phone": "(01) 09-5104345"},
{"Category": "Architectural Services", "Name": "Dream Image", "Address": "No.149, Bogyoke Aung San St, Bet 46th & 47th St, ", "Phone": "(01) 295930"},
{"Category": "Categories", "Name": "DE Arch", "Address": "#440, Waizayantar Rd, South Okkalapa, ", "Phone": "(01) 565911"},
{"Category": "Architectural Services", "Name": "Dr.Swe Swe Aye", "Address": "No.42/A, Rose Lane, Parami Avenue, ", "Phone": "(01) 660862"},
{"Category": "Architectural Services", "Name": "EIN LINN THIT", "Address": "21 Room 401 (4th Floor.), Bayint Naung Rd. Kamayut Tsp Yangon", "Phone": "(01)-511053 95161524 95010018"},
{"Category": "Architectural Services", "Name": "CITY SCAPE CONSTRUCTION", "Address": "Room 13 (3rd Floor.) Bldg. 7 Mya Kanthar Housing, Kamayut Tsp Yangon", "Phone": "(01)-662199 504554 95002051"},
{"Category": "Architectural Services", "Name": "Grand Sunday Construction Co.,Ltd.", "Address": "(Rm 15), Bldg 11, Mya Kan Thar St., Mya Kan Thar Housing, Ward (2), KMYT", "Phone": "095121953"},
{"Category": "Architectural Services", "Name": "EIN LIN THIT", "Address": "Bldg. 21, Rm#401, 4th Flr., Bayint Naung Rd., Kamayut Tsp Yangon", "Phone": "(01)-511053"},
{"Category": "Architectural Services", "Name": "Ever Top (Thein Win (U))", "Address": "130, 1st Flr., 33rd St., Middle Blk., Kyaukdata Tsp", "Phone": "(01) 09-5111953"},
{"Category": "Architectural Services", "Name": "Dr.Daw Theingi Phone Myint", "Address": "226, Mahar Thukha St, Kan Ashae Qtr, ", "Phone": "(081) 24723"},
{"Category": "Categories", "Name": "Golden Bagan Architectural Design & Trading", "Address": "B-5, Aung San Stadium (North Wing), Mingalar Taungnyunt, ", "Phone": "(01)394762"},
{"Category": "Architectural Services", "Name": "GMS Architectural Engineering Services Co.,Ltd.", "Address": "23/C, Kan Yeik Thar St., Ward (10), MYGN", "Phone": "664851"},
{"Category": "Architectural Services", "Name": "Figure 5 Home Design", "Address": "No.48B/2, Inya Rd, ", "Phone": "(01) 513524"},
{"Category": "Engineers", "Name": "Kajima Corporation, Myanmar District Office", "Address": "53, University Avenue Rd., Shwe Taung Gyar Ward (1), BHN", "Phone": "503237"},
{"Category": "Architectural Services", "Name": "HTOO PYAE WIN", "Address": "Room A2/02 Bldg. 11, Sabei Street Mingalar Taung Nyunt Tsp Yangon", "Phone": "(01)-201955"},
{"Category": "Architectural Services", "Name": "INTERTECH CO. LTD.", "Address": "Unit 3 Nawaday Shop Houses, 99th Street Hlaing Tharyar Tsp Yangon", "Phone": "(01)-728307"},
{"Category": "Architectural Services", "Name": "Khin Maung Nyunt,U", "Address": "Bldg-39, 3rd Flr, Thiri St, 2 Qtr, ", "Phone": "(01) 095016802"},
{"Category": "Architectural Services", "Name": "Home Creator Group", "Address": "Bldg. 60, Rm# 8, Upstairs of National Optic, Cor. 28th & 84th St.", "Phone": "(02) 64269"},
{"Category": "Architectural Services", "Name": "Hlaing Maw Oo,Daw", "Address": "712, Rm-04, Pearl Phyu Lane, Bawga Theikdi Ward, Zabuthiri Tsp, Naypyitaw", "Phone": "(067) 098302267"},
{"Category": "Categories", "Name": "Khin Yu Waddy Myint,Daw", "Address": "No.1103, Block-A, Thiri Condo, 9 Mile, Mayangone, ", "Phone": "(01) 095026453"},
{"Category": "Categories", "Name": "Hla Su Myat,Daw", "Address": "No.54, Pyay St, Ma Soeyein Lane (1), 9 Miles, Mayangone, ", "Phone": "(01) 651126"},
{"Category": "Architectural Services", "Name": "Hnin Yi,Daw", "Address": "17, Ma Po St, ", "Phone": "(01) 095104345"},
{"Category": "Categories", "Name": "Khine Thuzar Nyo,Daw", "Address": "No.148, B-3, A-1 St, 9 Mile, Mayangone, ", "Phone": "(01) 652171"},
{"Category": "Architectural Services", "Name": "Hnin Yi Myint,Daw", "Address": "No.1002, U Wisara Rd, Blazon Apartment, Pin Lon Htate Htar Condominium, ", "Phone": "(01) 537569"},
{"Category": "Architectural Services", "Name": "Hla Htay Aung,Daw", "Address": "No.3, Shin Saw Pu St, Winsar Garden, ", "Phone": "(01) 095125211"},
{"Category": "Categories", "Name": "Kaung Myat Thu,U", "Address": "Rm-9/D, Tower(2), Taw Win Rd, Thiri Yeik Tha Condo, 9 Mile, Mayangone, ", "Phone": "(01) 095117380"},
{"Category": "Architectural Services", "Name": "Htun Kyaw Thu,U", "Address": "Rm-103, U Wisara Rd, Pin Lon Htate Htar Housing, ", "Phone": "(01) 513748"},
{"Category": "Architectural Services", "Name": "HTOO ARCHITECTURAL SACLE MODEL", "Address": "656, 5th Street Blk. (1) Mayangon Tsp Yangon", "Phone": "(01)-651565"},
{"Category": "Architectural Services", "Name": "GREEN VILLA CO. LTD. (OFFICE)", "Address": "60-62, Myaynigon Zay Lane Sanchaung Tsp Yangon", "Phone": "(01)-664438"},
{"Category": "Architectural Services", "Name": "KJK ARCHITECTRE & ENGINEERING FIRM", "Address": "182-202 Room 9, 34th Street Kyauktada Tsp Yangon", "Phone": "(01)-385123 95001634"},
{"Category": "Architectural Services", "Name": "Khin Yu Waddy Myint,Daw", "Address": "76, 1st Flr, Bo Aung Kyaw St, ", "Phone": "(01) 380256"},
{"Category": "Architectural Services", "Name": "Max Dragon", "Address": "8, 16th St., Bet. 80th & 81st St., Aung Myay Thazan Tsp", "Phone": "(02) 65308"},
{"Category": "Architectural Services", "Name": "KJK Architecture & Engineering Firm", "Address": "Bldg No.182/202, Rm 9, 34th St, ", "Phone": "(01)385123"},
{"Category": "Categories", "Name": "K'na Architects Group", "Address": "Bldg-4, Rm-501 & 502, Pyay St, Myaing Hay Wun Housing, 8Mile, Mayangone, ", "Phone": "(01) 653575"},
{"Category": "Categories", "Name": "Lwin Mar,Daw", "Address": "No.202/C-6, Strand Rd, Thiri Mingalar Housing, Ahlone, ", "Phone": "(01) 227611"},
{"Category": "Architectural Services", "Name": "May Thu Win,Daw", "Address": "Bldg-12, Rm-202, Ngu Wah St, Aye Yeik Mon Housing, ", "Phone": "(01) 728087"},
{},
{},
{},
{},
{},
{},
{},
{},
{},
{},
{},
{},
{},
{},
{},
{},
{},
{},
{},
{},
{},
{},
{},
{},
{},
{},
{},
{},
{},
{},
{},
{},
{},
{},
{},
{},
{},
{},
{},
{},
{},
{},
{},
{},
{},
{},
{},
{},
{},
{}